City_ID,City,Lat,Lng,Max Temp,Humidity,Cloudiness,Wind Speed,Country,Date
0,papatowai,-46.5619,169.4708,11.62,53,93,1.57,NZ,1717467391
1,ishigaki,24.3448,124.1572,28.07,65,75,6.17,JP,1717467391
2,punta arenas,-53.15,-70.9167,0.06,93,0,2.57,CL,1717467116
3,nikolayevsk-on-amure,53.1406,140.73,5.12,67,100,3.58,RU,1717467391
4,port-aux-francais,-49.35,70.2167,1.56,91,100,17.59,TF,1717467391
5,ushuaia,-54.8,-68.3,2.81,93,100,2.06,AR,1717467391
6,springbok,-29.6643,17.8865,8.28,97,100,3.86,ZA,1717467391
7,waitangi,-43.9535,-176.5597,9.34,81,100,3.58,NZ,1717467392
8,avarua,-21.2078,-159.775,25.03,65,36,2.06,CK,1717467392
9,thompson,55.7435,-97.8558,15.09,58,40,3.09,CA,1717467392
10,lompoc,34.6391,-120.4579,19.41,81,100,9.83,US,1717467392
11,adamstown,-25.066,-130.1015,21.34,82,89,3.99,PN,1717467392
12,kodiak,57.79,-152.4072,7.73,87,100,3.6,US,1717467392
13,cuyamel,15.6667,-88.2,29.09,85,67,3.63,HN,1717467392
14,iqaluit,63.7506,-68.5145,-0.15,93,100,6.69,CA,1717467316
15,margaret river,-33.95,115.0667,17.68,76,51,3.14,AU,1717467392
16,almeirim,-1.5233,-52.5817,22.96,98,37,1.31,BR,1717467392
17,hermanus,-34.4187,19.2345,16.56,95,100,5.73,ZA,1717467393
18,qaqortoq,60.7167,-46.0333,3.51,88,99,0.21,GL,1717467393
19,tabuan,9.5156,122.8506,31.39,61,100,3.57,PH,1717467393
20,saynshand,44.8824,110.1163,24.55,31,90,4.44,MN,1717467393
21,guacamayas,18.0167,-102.2167,25.16,72,7,2.46,MX,1717467393
22,ribeira grande,38.5167,-28.7,17.22,82,20,3.6,PT,1717467393
23,wailua homesteads,22.0669,-159.378,28.24,82,100,7.2,US,1717467393
24,anadyr,64.75,177.4833,12.28,35,0,8.0,RU,1717467393
25,turkmenbasy,40.0222,52.9552,18.43,77,0,0.0,TM,1717467394
26,lhasa,29.65,91.1,12.03,42,95,0.78,CN,1717467394
27,happy valley-goose bay,53.3168,-60.3315,18.17,82,75,2.06,CA,1717467310
28,la sarre,48.8002,-79.1996,17.88,71,100,3.19,CA,1717467394
29,vorkuta,67.5,64.0,-3.26,85,100,1.51,RU,1717467394
30,mili,6.0815,171.735,28.15,78,100,5.7,MH,1717467311
31,new norfolk,-42.7826,147.0587,13.72,79,64,0.63,AU,1717467394
32,nagqu,31.5,92.0,4.94,20,100,3.26,CN,1717467395
33,castillos,-34.1667,-53.8333,7.57,77,100,1.17,UY,1717467395
34,taltal,-25.4,-70.4833,15.03,89,100,1.09,CL,1717467395
35,isafjordur,66.0755,-23.124,0.43,74,99,4.66,IS,1717467395
36,feijo,-8.1642,-70.3536,24.99,78,90,0.63,BR,1717467395
37,stanley,54.868,-1.6985,11.27,92,75,1.54,GB,1717467194
38,ulladulla,-35.35,150.4667,13.76,53,47,0.87,AU,1717467396
39,georgetown,5.4112,100.3354,29.97,84,20,0.0,MY,1717467312
40,luwuk,-0.9516,122.7875,24.57,88,100,2.79,ID,1717467396
41,grytviken,-54.2811,-36.5092,-1.26,76,17,4.05,GS,1717467396
42,bethel,41.3712,-73.414,21.47,76,0,2.06,US,1717467396
43,hawaiian paradise park,19.5933,-154.9731,26.73,81,75,2.57,US,1717467396
44,hithadhoo,-0.6,73.0833,28.42,75,39,2.75,MV,1717467396
45,dakhla,23.6848,-15.958,19.36,91,1,7.39,EH,1717467396
46,kailua-kona,19.6406,-155.9956,28.98,68,75,4.63,US,1717467153
47,dawei,14.0833,98.2,26.86,87,100,1.63,MM,1717467397
48,paredon,16.0333,-93.8667,29.77,79,44,1.78,MX,1717467397
49,playa del ingles,27.7567,-15.5787,20.86,80,2,1.6,ES,1717467129
50,kavieng,-2.5744,150.7967,29.73,70,92,2.65,PG,1717467397
51,chonchi,-42.6128,-73.8092,7.84,93,100,3.45,CL,1717467397
52,college,64.8569,-147.8028,20.97,44,75,3.09,US,1717467397
53,hassan,13.0006,76.0994,22.73,88,99,2.92,IN,1717467397
54,invercargill,-46.4,168.35,10.57,74,100,1.34,NZ,1717467397
55,west island,-12.1568,96.8225,28.99,84,75,5.14,CC,1717467397
56,mount isa,-20.7333,139.5,21.87,33,40,4.63,AU,1717467398
57,dudinka,69.4058,86.1778,-1.85,92,94,2.24,RU,1717467290
58,puerto ayora,-0.7393,-90.3518,21.97,98,70,3.12,EC,1717467398
59,anaconda,46.1285,-112.9423,9.55,76,42,6.31,US,1717467398
60,zuunmod,47.7069,106.9528,18.57,36,100,1.13,MN,1717467398
61,puerto natales,-51.7236,-72.4875,-2.72,93,99,1.13,CL,1717467123
62,redencao,-4.2258,-38.7306,23.03,95,12,0.21,BR,1717467398
63,jamestown,42.097,-79.2353,19.45,94,0,2.06,US,1717467295
64,kayyerkan,69.3786,87.7439,-2.06,89,99,2.05,RU,1717467398
65,donsol,12.9055,123.5949,30.56,71,84,4.28,PH,1717467398
66,jeddah,21.5169,39.2192,30.92,55,0,2.57,SA,1717467115
67,vorgashor,67.5833,63.95,-3.45,86,100,1.43,RU,1717467399
68,vadso,70.0744,29.7487,10.49,87,20,5.66,NO,1717467399
69,inyonga,-6.7167,32.0667,18.18,64,75,1.75,TZ,1717467399
70,kodinsk,58.6881,99.1844,13.58,60,100,1.43,RU,1717467399
71,port mathurin,-19.6833,63.4167,23.64,69,1,9.82,MU,1717467399
72,harstad,68.799,16.5293,8.66,90,100,2.24,NO,1717467399
73,ta`u,-14.2336,-169.5144,27.59,73,97,7.38,AS,1717467399
74,fortuna,40.5982,-124.1573,17.74,79,100,4.12,US,1717467399
75,hun,29.1268,15.9477,27.37,42,75,3.21,LY,1717467400
76,honiara,-9.4333,159.95,30.91,66,17,2.68,SB,1717467400
77,edinburgh of the seven seas,-37.0676,-12.3116,12.48,62,6,4.71,SH,1717467400
78,tsengel,49.4783,100.8894,16.59,53,77,1.2,MN,1717467400
79,vavuniya,8.7514,80.4971,27.07,81,76,3.45,LK,1717467400
80,albany,42.6001,-73.9662,22.11,66,100,0.89,US,1717467050
81,tiksi,71.6872,128.8694,5.65,71,36,1.71,RU,1717467400
82,mbanza kongo,-6.267,14.2401,17.71,99,15,1.04,AO,1717467400
83,kununurra,-15.7667,128.7333,24.99,57,0,5.66,AU,1717467400
84,bloomington,44.8408,-93.2983,25.18,72,0,0.0,US,1717467320
85,aasiaat,68.7098,-52.8699,-2.41,79,18,4.43,GL,1717467401
86,yellowknife,62.456,-114.3525,14.67,62,20,6.17,CA,1717467327
87,mugango,-1.6833,33.7,20.79,81,46,2.65,TZ,1717467401
88,urumqi,43.801,87.6005,14.53,59,100,2.0,CN,1717467401
89,tura,25.5198,90.2201,26.73,89,16,1.34,IN,1717467401
90,bredasdorp,-34.5322,20.0403,16.39,95,100,5.76,ZA,1717467401
91,vilyuchinsk,52.9306,158.4028,17.15,69,61,2.76,RU,1717467131
92,alice springs,-23.7,133.8833,14.75,67,2,5.14,AU,1717467401
93,el-tor,28.2364,33.6254,24.08,73,0,6.69,EG,1717467401
94,olonkinbyen,70.9221,-8.7187,0.46,91,89,12.17,SJ,1717467402
95,susuman,62.7833,148.1667,16.1,33,46,3.13,RU,1717467402
96,polyarnyy,69.1989,33.4478,10.16,91,83,1.58,RU,1717467378
97,lochow,52.5308,21.6816,14.39,98,100,2.6,PL,1717467402
98,cedeira,43.6797,-8.0209,16.02,78,23,9.24,ES,1717467402
99,san patricio,28.017,-97.5169,29.36,81,98,8.26,US,1717467402
100,pisco,-13.7,-76.2167,16.03,82,0,2.57,PE,1717467402
101,bukene,-4.2333,32.8833,18.96,61,47,1.49,TZ,1717467402
102,constantia,44.1833,28.65,17.61,85,79,1.03,RO,1717467314
103,sisimiut,66.9395,-53.6735,3.11,64,100,2.92,GL,1717467403
104,kirishi,59.4471,32.0205,17.24,94,100,1.54,RU,1717467403
105,posto fiscal rolim de moura,-13.0833,-62.2667,23.94,71,100,0.33,BR,1717467131
106,geneseo,42.7959,-77.8169,19.62,76,58,0.49,US,1717467403
107,blackmans bay,-43.0167,147.3167,13.07,94,0,0.45,AU,1717467314
108,saldanha,-33.0117,17.9442,16.03,96,43,4.54,ZA,1717467403
109,greymouth,-42.4667,171.2,10.96,71,100,1.14,NZ,1717467403
110,ust-nera,64.5667,143.2,18.77,26,19,2.12,RU,1717467403
111,san andres,12.5847,-81.7006,28.01,83,20,1.54,CO,1717467404
112,ipatovo,45.7181,42.9036,20.09,67,7,1.98,RU,1717467404
113,weno,7.4515,151.8468,31.97,79,75,4.12,FM,1717467404
114,east london,-33.0153,27.9116,13.92,52,83,6.35,ZA,1717467404
115,meadow lake,34.8014,-106.5436,29.71,11,69,4.57,US,1717467404
116,kingston,17.997,-76.7936,28.53,79,75,3.09,JM,1717467397
117,kerikeri,-35.2268,173.9474,18.28,78,100,2.24,NZ,1717467404
118,nova sintra,14.8667,-24.7167,24.53,77,100,9.39,CV,1717467405
119,kyzyl-mazhalyk,51.1333,90.6,12.17,75,45,2.24,RU,1717467405
120,codrington,-38.2667,141.9667,12.28,55,100,2.14,AU,1717467405
121,gadzhiyevo,69.2551,33.3362,9.57,93,81,2.12,RU,1717467405
122,andilamena,-17.0167,48.5833,15.48,91,98,3.9,MG,1717467405
123,cafayate,-26.073,-65.9761,10.56,79,100,2.22,AR,1717467405
124,boa vista,2.8197,-60.6733,25.99,89,20,1.54,BR,1717467301
125,nemuro,43.3236,145.575,7.68,90,100,4.26,JP,1717467405
126,nouadhibou,20.931,-17.0347,18.7,91,2,9.62,MR,1717467405
127,lensk,60.7253,114.9278,13.11,93,100,1.6,RU,1717467406
128,kapuskasing,49.4169,-82.4331,19.0,72,100,2.57,CA,1717467406
129,agat village,13.3886,144.6585,31.87,75,20,5.14,GU,1717467406
130,santiago,-33.4569,-70.6483,16.17,70,100,3.09,CL,1717467209
131,trincomalee,8.5711,81.2335,28.25,74,100,5.25,LK,1717467406
132,koutiala,12.3917,-5.4642,27.58,63,35,7.55,ML,1717467406
133,richards bay,-28.783,32.0377,14.83,40,0,2.58,ZA,1717467406
134,ciudad acuna,29.3232,-100.9522,34.16,51,0,3.6,MX,1717467406
135,port lincoln,-34.7333,135.8667,13.3,78,100,4.36,AU,1717467406
136,enewetak,11.3474,162.3373,27.72,83,100,6.98,MH,1717467406
137,merouana,35.6311,5.9119,13.83,66,100,1.89,DZ,1717467407
138,peterhead,57.5058,-1.7981,11.92,79,100,3.22,GB,1717467407
139,dryden,49.7833,-92.7503,15.18,91,100,0.45,CA,1717467282
140,port alfred,-33.5906,26.891,10.66,81,35,1.34,ZA,1717467407
141,margate,51.3813,1.3862,15.94,83,98,0.89,GB,1717467348
142,aberdeen,57.1437,-2.0981,11.97,83,100,3.6,GB,1717467407
143,port-vila,-17.7338,168.3219,27.78,74,40,5.14,VU,1717467407
144,lihue,21.9789,-159.3672,28.58,77,100,7.2,US,1717467407
145,semirara,12.0697,121.3986,29.28,78,92,4.97,PH,1717467408
146,cidreira,-30.1811,-50.2056,12.89,69,38,3.18,BR,1717467408
147,magole,-6.3667,37.3667,18.92,97,91,0.77,TZ,1717467409
148,hadibu,12.65,54.0333,28.38,78,56,6.06,YE,1717467409
149,teguise,29.0605,-13.564,18.12,64,100,3.6,ES,1717467366
150,port elizabeth,-33.918,25.5701,10.73,90,0,2.57,ZA,1717467409
151,muzo,5.5353,-74.1078,20.86,97,92,2.37,CO,1717467409
152,ostroh,50.3294,26.5143,15.92,87,100,2.37,UA,1717467410
153,kolonia,50.9333,6.95,14.97,82,100,1.54,DE,1717467410
154,barah,13.7,30.3667,27.73,13,8,1.63,SD,1717467410
155,utrik,11.2278,169.8474,28.17,79,100,9.22,MH,1717467410
156,kertih,4.5141,103.4483,30.01,79,20,0.0,MY,1717467410
157,makar'yev,57.8797,43.8069,15.38,95,11,2.21,RU,1717467410
158,sarakhs,36.5449,61.1577,26.16,34,2,6.63,IR,1717467410
159,petropavlovsk-kamchatsky,53.0452,158.6483,16.33,75,0,6.0,RU,1717467410
160,haiku-pauwela,20.9219,-156.3051,27.9,77,40,10.8,US,1717467410
161,mujiayingzi,42.1167,118.7833,26.91,22,14,1.24,CN,1717467411
162,labytnangi,66.6572,66.4183,0.21,82,100,1.0,RU,1717467411
163,san antonio de pale,-1.4014,5.6325,25.76,82,27,6.84,GQ,1717467411
164,vila franca do campo,37.7167,-25.4333,18.27,99,16,2.83,PT,1717467411
165,arno,60.1167,18.6333,14.32,70,13,4.96,SE,1717467411
166,okhotsk,59.3833,143.3,3.56,96,100,7.72,RU,1717467411
167,lerwick,60.1545,-1.1494,10.0,89,100,12.22,GB,1717467411
168,mehrabpur,28.1085,68.0254,33.63,46,0,4.58,PK,1717467411
169,geiro,-6.15,36.8667,14.28,97,61,1.02,TZ,1717467411
170,miquelon,47.0975,-56.3814,9.0,97,100,9.0,PM,1717467411
171,bilibino,68.0546,166.4372,13.75,37,97,4.52,RU,1717467412
172,bani walid,31.7566,13.9942,24.78,53,71,3.18,LY,1717467412
173,talnakh,69.4865,88.3972,-2.11,89,100,2.62,RU,1717467412
174,truth or consequences,33.1284,-107.2528,32.31,7,0,8.23,US,1717467148
175,tinaquillo,9.9186,-68.3047,24.04,99,100,0.99,VE,1717467412
176,kapa'a,22.0752,-159.319,28.99,82,100,7.2,US,1717467412
177,ponta delgada,37.7333,-25.6667,18.44,88,20,2.57,PT,1717467412
178,yaren,-0.5472,166.916,28.44,68,7,2.34,NR,1717467412
179,kuqa,41.7278,82.9364,20.2,21,100,2.01,CN,1717467412
180,st. john's,47.5649,-52.7093,9.53,98,100,3.6,CA,1717467413
181,puerto aysen,-45.4,-72.7,0.91,92,66,1.05,CL,1717467413
182,sao joao da barra,-21.6403,-41.0511,22.51,90,0,4.18,BR,1717467413
183,antofagasta,-23.65,-70.4,15.6,89,100,2.26,CL,1717467321
184,borger,52.9233,6.7931,14.46,92,100,2.12,NL,1717467413
185,whitehorse,60.7161,-135.0538,13.43,64,75,3.09,CA,1717467127
186,armacao de buzios,-22.7469,-41.8817,23.03,89,4,5.09,BR,1717467413
187,jawhar,2.7809,45.5005,24.35,90,31,5.04,SO,1717467414
188,sardinata,8.0829,-72.8007,28.82,75,100,2.38,CO,1717467414
189,atafu village,-8.5421,-172.5159,29.17,73,58,3.73,TK,1717467414
190,laojunmiao,39.8333,97.7333,19.47,18,43,1.18,CN,1717467414
191,badger,64.8,-147.5333,20.93,39,20,3.09,US,1717467414
192,keflavik,64.0049,-22.5624,4.95,87,75,10.29,IS,1717467414
193,latacunga,-0.9333,-78.6167,10.63,81,40,3.6,EC,1717467414
194,jiuquan,39.7432,98.5174,22.13,21,10,1.41,CN,1717467415
195,kilju,40.9642,129.3278,20.95,59,1,3.37,KP,1717467415
196,marondera,-18.1853,31.5519,12.4,68,0,1.59,ZW,1717467415
197,yondo,7.0062,-73.9097,25.72,89,100,0.9,CO,1717467415
198,fort mcmurray,56.7268,-111.381,17.77,45,0,4.63,CA,1717467415
199,kourou,5.1552,-52.6478,26.03,88,100,2.66,GF,1717467415
200,punta del este,-34.9667,-54.95,9.93,74,100,1.34,UY,1717467297
201,arraial do cabo,-22.9661,-42.0278,22.16,88,5,6.52,BR,1717467415
202,portland,45.5234,-122.6762,16.08,62,100,5.14,US,1717467240
203,klyuchi,52.2667,79.1667,16.79,68,100,7.64,RU,1717467416
204,ciudad bolivar,8.1222,-63.5497,29.35,65,95,1.1,VE,1717467397
205,singleton,-32.5667,151.1833,15.55,71,74,4.92,AU,1717467416
206,newman,37.3138,-121.0208,27.13,46,99,6.71,US,1717467416
207,mushie,-3.0167,16.9,23.4,82,7,1.55,CD,1717467416
208,maragogi,-9.0122,-35.2225,24.97,84,75,1.24,BR,1717467416
209,ugoofaaru,5.6667,73.0,28.48,80,100,4.95,MV,1717467416
210,dunedin,-45.8742,170.5036,11.69,50,88,1.6,NZ,1717467416
211,changling,44.2653,124.0005,25.67,35,3,1.47,CN,1717467187
212,mwinilunga,-11.7358,24.4293,13.43,49,8,0.71,ZM,1717467417
213,faya-largeau,17.9257,19.1043,33.49,13,3,4.69,TD,1717467417
214,bereznik,62.8551,42.7072,17.57,88,66,2.3,RU,1717467417
215,aykhal,66.0,111.5,16.4,32,5,5.05,RU,1717467417
216,impfondo,1.6381,18.0667,22.75,98,100,1.01,CG,1717467417
217,karratha,-20.7377,116.8463,21.55,40,0,8.99,AU,1717467417
218,walvis bay,-22.9575,14.5053,10.53,81,0,1.54,NA,1717467418
219,walker,30.7335,-95.5669,28.16,78,0,4.63,US,1717467418
220,siem reap,13.5,104.0,31.45,60,70,3.14,KH,1717467418
221,udachny,66.4167,112.4,16.92,34,56,4.24,RU,1717467418
222,luderitz,-26.6481,15.1594,12.1,78,3,2.02,NA,1717467418
223,chakulia,22.4833,86.7167,31.84,57,85,3.58,IN,1717467418
224,areia branca,-4.9561,-37.1369,25.64,85,14,7.01,BR,1717467418
225,holualoa,19.6228,-155.9522,26.91,68,75,4.63,US,1717467418
226,energetik,51.7445,58.7934,17.37,81,93,3.93,RU,1717467418
227,shakiso,5.75,38.9167,14.67,98,30,0.47,ET,1717467418
228,longyearbyen,78.2186,15.6401,5.91,75,75,9.77,SJ,1717467419
229,taroudant,30.4703,-8.877,17.27,87,58,2.65,MA,1717467419
230,marco island,25.9363,-81.7157,27.0,94,100,3.89,US,1717467419
231,vilyuysk,63.7553,121.6247,22.22,40,40,3.13,RU,1717467419
232,douliu,23.7094,120.5433,27.48,69,88,2.64,TW,1717467419
233,dayr mawas,27.6418,30.8466,26.24,32,0,5.56,EG,1717467419
234,halifax,44.6453,-63.5724,14.63,87,38,2.68,CA,1717466882
235,shengli,37.4564,118.4856,30.33,20,100,2.97,CN,1717467419
236,burutu,5.3509,5.5076,24.98,93,77,1.98,NG,1717467419
237,san francisco,37.7749,-122.4194,22.47,79,75,11.83,US,1717467144
238,verkhnevilyuysk,63.4453,120.3167,22.96,39,98,2.22,RU,1717467420
239,tanjung pandan,-2.75,107.65,29.1,68,99,1.19,ID,1717467420
240,tofol,5.3248,163.0078,30.88,70,75,7.2,FM,1717467420
241,moranbah,-22.0016,148.0466,22.08,28,0,1.88,AU,1717467420
242,sterling,39.0062,-77.4286,23.22,76,20,0.89,US,1717467420
243,greenville,35.6127,-77.3663,22.85,92,40,1.54,US,1717467326
244,krasnyy chikoy,50.3643,108.7512,20.5,53,100,1.23,RU,1717467130
245,tromso,69.6496,18.957,8.01,87,75,2.57,NO,1717467420
246,pacific grove,36.6177,-121.9166,21.51,82,20,3.13,US,1717467421
247,biankouma,7.7391,-7.6138,21.76,98,100,1.27,CI,1717467421
248,timbuktu,16.7735,-3.0074,34.99,31,96,3.86,ML,1717467421
249,lebu,-37.6167,-73.65,11.42,74,93,5.29,CL,1717467421
250,cabo san lucas,22.8909,-109.9124,31.17,32,0,3.6,MX,1717467324
251,paragominas,-2.9667,-47.4833,22.61,97,91,1.54,BR,1717467421
252,colonia del sacramento,-34.4667,-57.85,8.73,73,51,5.71,UY,1717467421
253,olinda,-8.0089,-34.8553,24.85,100,75,1.54,BR,1717467195
254,lazaro cardenas,17.9583,-102.2,26.15,71,6,3.09,MX,1717467386
255,marsh harbour,26.5412,-77.0636,25.79,79,72,5.61,BS,1717467421
256,usinsk,65.9939,57.5281,3.37,86,100,4.47,RU,1717467422
257,revda,56.801,59.9303,14.32,95,43,3.5,RU,1717467422
258,pelabuhanratu,-6.9875,106.5514,28.53,79,100,1.3,ID,1717467422
259,saudarkrokur,65.7461,-19.6394,1.24,90,100,11.21,IS,1717467422
260,ghat,24.9647,10.1728,31.66,23,100,2.26,LY,1717467422
261,tufanbeyli,38.2633,36.2206,14.94,59,0,1.93,TR,1717467422
262,port moresby,-9.4431,147.1797,29.68,70,40,5.14,PG,1717467422
263,newberry,34.2746,-81.6187,23.32,84,90,2.85,US,1717467138
264,saipan,15.1355,145.701,32.39,62,40,4.63,MP,1717467253
265,ilulissat,69.2167,-51.1,1.01,69,20,2.06,GL,1717467422
266,ibadan,7.3878,3.8964,23.26,99,52,1.31,NG,1717467423
267,nova zagora,42.4833,26.0167,17.98,80,26,2.33,BG,1717467423
268,rawson,-43.3002,-65.1023,8.61,51,100,15.84,AR,1717467263
269,tsiombe,-25.3,45.4833,18.53,92,9,3.15,MG,1717467423
270,moengo,5.6167,-54.4,23.73,98,95,0.57,SR,1717467423
271,ribeira brava,32.65,-17.0667,19.84,79,14,1.87,PT,1717467423
272,roma,43.2128,-75.4557,20.96,84,0,0.89,US,1717467423
273,cambria,35.5641,-121.0808,26.8,77,100,7.66,US,1717467423
274,mont-joli,48.5839,-68.1921,8.72,100,100,3.6,CA,1717467423
275,imuris,30.7833,-110.8667,27.6,16,0,4.73,MX,1717467424
276,pemba,-12.974,40.5178,25.39,94,40,1.54,MZ,1717467424
277,al bayda',32.7627,21.7551,24.44,30,0,2.23,LY,1717467424
278,lacey,47.0343,-122.8232,13.38,80,100,6.17,US,1717467424
279,kavaratti,10.5669,72.642,28.84,83,100,4.35,IN,1717467424
280,khenchela,35.4358,7.1433,18.18,68,49,0.61,DZ,1717467424
281,saint-pierre,-21.3393,55.4781,18.82,68,0,3.6,RE,1717467424
282,sorong,-0.8833,131.25,29.16,71,66,0.51,ID,1717467425
283,matane,48.8286,-67.522,10.28,98,50,4.09,CA,1717467425
284,callao,-12.0667,-77.15,17.07,77,40,5.66,PE,1717467425
285,anar darah,32.7587,61.654,25.88,20,0,6.39,AF,1717467425
286,essaouira,31.5125,-9.77,19.72,82,40,3.6,MA,1717467425
287,opuwo,-18.0607,13.84,8.97,19,0,1.65,NA,1717467426
288,kudahuvadhoo,2.6708,72.8944,28.36,78,88,3.87,MV,1717467426
289,tazovsky,67.4667,78.7,-3.27,94,41,5.58,RU,1717467426
290,ponta pora,-22.5361,-55.7256,21.25,57,95,2.07,BR,1717467211
291,dauphin,51.1494,-100.0502,19.08,52,100,4.12,CA,1717467417
292,undurkhaan,47.3194,110.6556,21.13,38,68,1.59,MN,1717467426
293,quzhou,28.9594,118.8686,19.3,79,100,1.56,CN,1717467426
294,maun,-19.9833,23.4167,6.6,30,0,2.6,BW,1717467426
295,waitara,-38.925,174.25,12.22,50,100,3.72,NZ,1717467426
296,port-gentil,-0.7193,8.7815,25.81,77,93,6.47,GA,1717467427
297,totness,5.8833,-56.3167,25.96,90,88,3.98,SR,1717467427
298,karaman,37.0833,33.25,18.67,51,81,1.21,TR,1717467310
299,junagarh,19.8667,82.9333,31.36,57,77,3.56,IN,1717467427
300,medvezh'yegorsk,62.9167,34.4667,16.1,89,54,0.46,RU,1717467427
301,lawrenceburg,38.0373,-84.8966,23.32,79,0,0.45,US,1717467427
302,al ghayzah,16.2079,52.176,27.51,77,20,0.47,YE,1717467427
303,hibbing,47.4272,-92.9377,21.73,49,40,0.0,US,1717467427
304,micheweni,-4.9667,39.8333,25.37,88,89,4.5,TZ,1717467427
305,huetamo de nunez,18.5833,-100.8833,32.35,21,2,2.24,MX,1717467427
306,pimentel,-6.8367,-79.9342,18.16,82,0,3.09,PE,1717467428
307,tateyama,34.9833,139.8667,20.49,65,14,2.41,JP,1717467428
308,kone,-21.0595,164.8658,28.88,60,88,1.25,NC,1717467428
309,thunder bay,48.4001,-89.3168,12.28,100,90,1.58,CA,1717467193
310,tolanaro,-25.0319,46.9987,21.04,94,75,7.2,MG,1717467428
311,fort bragg,35.139,-79.006,23.85,88,20,0.89,US,1717467428
312,howard springs,-12.497,131.047,31.04,71,22,1.02,AU,1717467428
313,mata-utu,-13.2816,-176.1745,27.73,75,12,7.87,WF,1717467428
314,turgenevo,54.8455,46.3297,16.12,91,36,2.14,RU,1717467428
315,takoradi,4.8845,-1.7554,25.64,88,100,2.74,GH,1717467428
316,peace river,56.2501,-117.286,12.17,93,100,4.12,CA,1717467306
317,hami,42.8,93.45,26.9,20,26,4.33,CN,1717467429
318,santiago de cao,-7.9589,-79.2392,17.07,88,30,1.54,PE,1717467429
319,kargasok,59.0556,80.8572,6.65,48,4,3.58,RU,1717467429
320,sawakin,19.1059,37.3321,27.44,72,1,0.86,SD,1717467429
321,yeniseysk,58.4497,92.1703,4.97,68,100,0.45,RU,1717467429
322,mar del plata,-38.0023,-57.5575,8.82,74,88,5.36,AR,1717467261
323,crane,31.3974,-102.3501,33.71,7,55,3.73,US,1717467429
324,afaahiti,-17.75,-149.2833,25.93,77,100,6.41,PF,1717467429
325,bogatyye saby,56.0102,50.4483,17.87,89,100,2.51,RU,1717467430
326,talara,-4.5772,-81.2719,19.42,88,0,5.06,PE,1717467430
327,urucara,-2.5364,-57.76,23.85,97,100,1.07,BR,1717467430
328,fale old settlement,-9.3852,-171.2468,28.61,76,49,6.36,TK,1717467430
329,palmer,42.1584,-72.3287,22.75,62,20,0.0,US,1717467430
330,eyl,7.9803,49.8164,27.07,72,99,7.9,SO,1717467345
331,huancavelica,-12.7667,-74.9833,-0.8,96,6,0.74,PE,1717467155
332,luang prabang,19.8856,102.1347,27.98,83,75,2.06,LA,1717467430
333,rosetta,31.4044,30.4164,22.99,83,0,3.7,EG,1717467430
334,yeppoon,-23.1333,150.7333,24.58,57,0,2.75,AU,1717467430
335,lalago,-3.45,33.95,19.43,77,43,1.81,TZ,1717467431
336,sao jose da coroa grande,-8.8978,-35.1478,25.64,82,43,1.87,BR,1717467431
337,ciudad lazaro cardenas,17.9583,-102.2,26.15,71,6,3.09,MX,1717467431
338,urangan,-25.3,152.9,17.15,48,0,3.42,AU,1717467431
339,tarauaca,-8.1614,-70.7656,24.84,77,86,0.42,BR,1717467431
340,oyama,36.3,139.8,23.1,44,5,2.58,JP,1717467431
341,hamilton,39.1834,-84.5333,23.47,82,0,2.06,US,1717467283
342,flying fish cove,-10.4217,105.6791,27.82,83,100,5.66,CX,1717467311
343,gudur,14.1333,79.85,31.46,60,100,0.97,IN,1717467431
344,xapuri,-10.6517,-68.5044,25.05,64,100,0.77,BR,1717467432
345,igarka,67.4667,86.5833,0.57,82,100,1.79,RU,1717467432
346,al 'amarah,31.8406,47.1396,31.99,17,0,6.54,IQ,1717467432
347,sovetskaya gavan',48.9723,140.2878,13.39,52,100,2.55,RU,1717467432
348,celestun,20.8667,-90.4,28.4,71,99,6.59,MX,1717467432
349,kilindoni,-7.9139,39.6668,26.06,79,63,2.92,TZ,1717467433
350,progreso,21.2833,-89.6667,31.06,84,100,7.81,MX,1717467433
351,pochinok,54.4068,32.4407,14.85,96,49,2.85,RU,1717467433
352,el granada,37.5027,-122.4694,21.61,83,100,11.83,US,1717467433
353,palikir - national government center,6.9248,158.1611,30.47,70,100,5.14,FM,1717467433
354,sisak,45.4661,16.3783,14.99,97,100,2.14,HR,1717467433
355,sur,22.5667,59.5289,29.38,65,6,5.62,OM,1717467433
356,tadine,-21.55,167.8833,25.62,69,45,4.91,NC,1717467433
357,afif,23.9065,42.9172,28.61,14,0,5.59,SA,1717467433
358,wotho,10.1657,166.0102,28.11,80,100,7.82,MH,1717467434
359,boende,-0.2167,20.8667,22.24,97,23,0.97,CD,1717467434
360,el calafate,-50.3408,-72.2768,-1.6,58,100,0.92,AR,1717467434
361,amahai,-3.3333,128.9167,24.91,92,100,0.96,ID,1717467434
362,gilgit,35.9221,74.3087,18.18,52,35,1.51,PK,1717467435
363,remire-montjoly,4.9167,-52.2667,26.02,100,75,1.03,GF,1717467435
364,grants,35.1473,-107.8514,25.13,9,0,5.66,US,1717467435
365,bardai,11.65,7.2333,24.37,65,100,3.52,NG,1717467435
366,puerto baquerizo moreno,-0.9,-89.6,22.1,86,100,3.79,EC,1717467435
367,la passe,45.5549,-0.8967,14.43,84,28,2.42,FR,1717467435
368,lib,8.3122,167.3766,28.53,79,100,6.2,MH,1717467435
369,duki,30.1541,68.5728,28.99,25,0,2.91,PK,1717467436
370,villablino,42.9393,-6.3194,12.12,88,0,1.94,ES,1717467436
371,fada,9.5667,8.3,21.36,91,89,1.27,NG,1717467436
372,tomakomai,42.6369,141.6033,18.08,63,75,3.6,JP,1717467436
373,kayangel,8.0823,134.7173,29.36,71,100,2.89,PW,1717467436
374,yumaguzino,52.9041,56.3933,17.29,88,69,1.81,RU,1717467436
375,vertientes,21.2594,-78.1464,24.34,82,9,3.27,CU,1717467436
376,panama city beach,30.1766,-85.8055,27.07,82,20,2.06,US,1717467231
377,nadym,65.5333,72.5167,-0.58,83,100,1.52,RU,1717467436
378,taoudenni,22.6783,-3.9836,33.54,13,97,3.81,ML,1717467436
379,tralee,52.2704,-9.7026,12.41,96,100,2.88,IE,1717467437
380,visakhapatnam,17.69,83.2093,29.94,89,75,1.03,IN,1717467437
381,murashi,59.3999,48.9615,16.14,94,40,3.16,RU,1717467437
382,caussade,44.1608,1.5391,12.57,92,0,0.65,FR,1717467437
383,karimganj,24.8667,92.35,23.82,98,100,1.07,IN,1717467437
384,uturoa,-16.7333,-151.4333,27.32,76,100,5.3,PF,1717467437
385,iskateley,67.6803,53.1512,3.34,78,100,1.79,RU,1717467437
386,smithers,54.7804,-127.1743,14.18,67,75,4.63,CA,1717467437
387,porto novo,6.4965,2.6036,26.28,87,63,3.03,BJ,1717467437
388,westport,41.1415,-73.3579,22.93,74,0,1.79,US,1717467197
389,juba,4.8517,31.5825,22.09,91,53,1.96,SS,1717467438
390,montmagny,48.9734,2.3469,15.55,85,20,2.06,FR,1717467438
391,colonia,50.9333,6.95,14.97,82,100,1.54,DE,1717467410
392,forster,-32.1667,152.5167,19.65,59,67,0.36,AU,1717467438
393,lydenburg,-25.0978,30.4597,2.71,43,0,0.97,ZA,1717467438
394,east ballina,-28.8667,153.5833,18.78,44,100,0.66,AU,1717467438
395,san gabriel,34.0961,-118.1058,23.0,65,0,4.12,US,1717467438
396,silifke,36.3778,33.9344,28.87,36,93,3.84,TR,1717467285
397,al hada,21.3675,40.2869,19.66,24,0,0.68,SA,1717467438
398,coquimbo,-29.9533,-71.3436,13.5,93,100,2.11,CL,1717467189
399,khamgaon,20.6833,76.5667,31.67,49,92,4.98,IN,1717467439
400,thames,-37.1333,175.5333,16.28,46,88,1.14,NZ,1717467439
401,monrovia,6.3005,-10.7969,25.87,87,100,2.76,LR,1717467439
402,broken hill,-31.95,141.4333,11.16,40,100,3.65,AU,1717467439
403,malango,-2.9627,119.9001,20.73,94,100,0.36,ID,1717467439
404,tocoa,15.6833,-86.0,24.75,96,9,0.86,HN,1717467439
405,manggar,-2.8833,108.2667,29.03,70,81,0.67,ID,1717467439
406,waddan,29.1614,16.139,28.52,36,69,2.66,LY,1717467439
407,tucuma,-0.1833,-50.05,24.96,91,100,3.36,BR,1717467440
408,kirensk,57.7853,108.1119,18.87,42,100,2.24,RU,1717467440
409,nuevo ideal,24.8875,-105.0728,23.22,14,29,5.46,MX,1717467440
410,metlili chaamba,32.2667,3.6333,24.52,47,4,5.14,DZ,1717467440
411,biloela,-24.4167,150.5,20.67,27,0,1.0,AU,1717467440
412,idfu,24.9803,32.8747,29.87,17,0,4.05,EG,1717467440
413,san sebastian de la gomera,28.0916,-17.1133,21.32,73,0,3.09,ES,1717467440
414,midvagur,62.0511,-7.1939,5.46,81,75,2.57,FO,1717467440
415,saint-philippe,-21.3585,55.7679,18.77,79,30,4.12,RE,1717467441
416,urzhar,47.093,81.6294,14.92,46,0,0.61,KZ,1717467441
417,nuuk,64.1835,-51.7216,9.34,53,75,1.03,GL,1717467441
418,castro,-24.7911,-50.0119,16.4,74,100,0.24,BR,1717467441
419,ballina,-28.8667,153.5667,18.77,44,100,0.66,AU,1717467441
420,tutoia,-2.7619,-42.2744,26.57,88,0,4.01,BR,1717467442
421,al majaridah,19.1236,41.9111,32.72,31,0,0.79,SA,1717467442
422,minas de marcona,-15.2119,-75.1103,11.9,87,61,4.32,PE,1717467278
423,yemetsk,63.4721,41.7941,17.33,89,88,0.95,RU,1717467442
424,tucumcari,35.1717,-103.725,30.52,9,0,2.57,US,1717467442
425,holmsund,63.706,20.3641,11.08,87,0,3.13,SE,1717467442
426,leiyang,26.4024,112.8591,21.41,92,99,1.66,CN,1717467442
427,vikhorevka,56.1201,101.1636,10.77,95,100,2.19,RU,1717467442
428,shahrud,36.4182,54.9763,16.27,45,0,4.24,IR,1717467442
429,acajutla,13.5928,-89.8275,28.43,81,100,3.17,SV,1717467443
430,kidal,18.4411,1.4078,32.17,26,56,2.58,ML,1717467443
431,iwon-up,40.3231,128.6553,20.36,65,0,4.57,KP,1717467443
432,leongatha,-38.4833,145.95,12.41,73,100,2.96,AU,1717467443
433,plastun,44.7561,136.2939,6.06,97,100,1.19,RU,1717467443
434,charters towers,-20.1,146.2667,24.89,50,0,5.16,AU,1717467443
435,kandira,41.0736,30.1746,13.1,63,100,0.3,TR,1717467443
436,khandyga,62.6667,135.6,18.45,40,23,3.44,RU,1717467444
437,arua,3.0201,30.9111,18.18,89,86,1.59,UG,1717467444
438,howrah,22.5892,88.3103,31.0,84,75,5.14,IN,1717467444
439,nogliki,51.8333,143.1667,8.52,68,58,1.34,RU,1717467444
440,siwa oasis,29.2041,25.5195,28.43,23,0,4.04,EG,1717467444
441,kuyucak,37.9133,28.4592,25.82,39,60,1.06,TR,1717467444
442,ujae,8.9322,165.7642,27.69,83,99,5.43,MH,1717467190
443,conduaga,8.862,117.4893,31.84,63,100,1.05,PH,1717467444
444,oranjemund,-28.55,16.4333,14.48,73,100,4.5,NA,1717467444
445,turpan,42.9333,89.1667,28.96,25,95,2.26,CN,1717467444
446,caburan,5.9181,125.6411,28.86,71,93,3.21,PH,1717467445
447,cill airne,52.05,-9.5167,12.53,90,100,2.06,IE,1717467445
448,burabay,53.0838,70.3138,15.28,85,100,1.61,KZ,1717467445
449,bongaree,-27.0797,153.1586,20.77,40,31,0.59,AU,1717467445
450,bel ombre,-4.6167,55.4167,28.91,79,40,2.06,SC,1717467445
451,kiama,-34.6833,150.8667,18.1,61,84,2.68,AU,1717467445
452,nabire,-3.3667,135.4833,24.84,93,100,1.63,ID,1717467445
453,mount gambier,-37.8333,140.7667,13.06,44,100,2.19,AU,1717467446
454,nyurba,63.2842,118.3319,17.3,75,100,2.07,RU,1717467446
455,acapulco de juarez,16.8634,-99.8901,28.9,74,40,3.09,MX,1717467446
456,nhamunda,-2.1861,-56.7131,23.49,98,93,1.11,BR,1717467446
457,mitu,1.1983,-70.1733,22.31,100,100,0.09,CO,1717467446
458,as sulayyil,20.4607,45.5779,28.14,12,0,3.49,SA,1717467446
459,tobelo,1.7284,128.0095,28.78,76,100,2.2,ID,1717467446
460,cooper's town,26.8667,-77.5167,26.1,76,75,5.54,BS,1717467446
461,nar'yan-mar,67.6713,53.087,3.39,78,100,1.79,RU,1717467280
462,veraval,20.9,70.3667,29.43,71,100,3.26,IN,1717467446
463,ceeldheer,3.8488,47.1806,25.45,86,16,6.62,SO,1717467430
464,matthew town,20.95,-73.6667,25.62,79,99,0.8,BS,1717467447
465,nadi,-17.8,177.4167,29.0,51,75,3.09,FJ,1717467446
466,ryotsu-minato,38.0833,138.4333,18.07,75,18,0.87,JP,1717467447
467,rouyn-noranda,48.2398,-79.0288,18.14,73,100,1.86,CA,1717467245
468,sarandi del yi,-33.35,-55.6333,3.97,92,9,3.71,UY,1717467447
469,tome acu,-2.4189,-48.1522,23.07,99,98,0.98,BR,1717467447
470,vovchans'k,50.3003,36.9467,17.67,88,65,2.63,UA,1717467447
471,suva,-18.1416,178.4415,27.71,61,75,4.63,FJ,1717467447
472,rouissat,31.9243,5.3502,24.04,50,3,5.14,DZ,1717467448
473,mount pearl,47.5166,-52.7813,9.07,98,100,3.6,CA,1717467448
474,xining,36.6167,101.7667,14.01,63,14,3.36,CN,1717467448
475,toliara,-23.35,43.6667,21.9,49,2,4.05,MG,1717467448
476,greater sudbury,46.49,-80.99,17.81,79,100,1.71,CA,1717467258
477,belmonte,-15.8631,-38.8828,22.74,90,100,2.05,BR,1717467448
478,kolonia town,6.964,158.206,31.06,70,100,5.14,FM,1717467448
479,aver-o-mar,41.4078,-8.7812,18.38,94,0,0.0,PT,1717467449
480,puerto lempira,15.2667,-83.7667,27.27,80,83,2.92,HN,1717467449
481,kuressaare,58.2481,22.5039,17.97,88,75,4.63,EE,1717467227
482,maunabo,18.0072,-65.8993,29.06,90,100,4.29,PR,1717467449
483,rio grande,-32.035,-52.0986,8.3,62,100,3.53,BR,1717467163
484,capelinha,-17.6914,-42.5158,14.83,89,59,1.49,BR,1717467449
485,chu,43.5983,73.7614,18.73,40,0,2.38,KZ,1717467449
486,barra de santo antonio,-9.4047,-35.5072,25.6,81,40,1.7,BR,1717467449
487,san borja,-14.8167,-66.85,21.0,76,100,1.3,BO,1717467449
488,placido de castro,-10.3353,-67.1856,24.92,71,97,1.07,BR,1717467450
489,al kharijah,25.4514,30.5464,27.02,20,0,3.99,EG,1717467450
490,touros,-5.1989,-35.4608,24.22,92,39,3.28,BR,1717467450
491,borba,-4.3878,-59.5939,23.76,98,97,0.35,BR,1717467450
492,sola,-13.8833,167.55,27.09,81,48,7.73,VU,1717467450
493,kongoussi,13.3258,-1.5347,26.72,63,100,4.37,BF,1717467450
494,saint-joseph,-21.3667,55.6167,18.21,77,14,4.17,RE,1717467451
495,padre bernardo,-15.35,-48.5,18.93,52,98,1.29,BR,1717467451
496,severobaykal'sk,55.65,109.3167,10.28,67,57,0.78,RU,1717467451
497,bokani,9.4333,5.2,25.28,81,100,0.71,NG,1717467451
498,genhe,50.7833,121.5167,21.04,41,100,2.29,CN,1717467451
499,gaiman,-43.2897,-65.4929,8.13,53,100,13.66,AR,1717467451
500,ulmeni,47.4667,23.3,16.19,94,1,1.51,RO,1717467451
501,taytay,14.5678,121.1394,33.35,70,75,2.06,PH,1717467451
502,pocatello,42.8713,-112.4455,17.95,68,40,12.86,US,1717467317
503,island harbour,50.724,-1.2758,16.07,75,94,0.45,GB,1717467451
504,namibe,-15.1961,12.1522,17.38,83,13,1.03,AO,1717467452
505,pemangkat,1.1667,108.9667,26.78,85,100,2.42,ID,1717467452
506,tabursuq,36.4569,9.2475,13.16,65,4,0.94,TN,1717467452
507,chingola,-12.529,27.8838,14.9,66,1,1.35,ZM,1717467452
508,antsiranana,-12.2787,49.2917,23.68,66,7,6.94,MG,1717467452
509,bhamo,24.2667,97.2333,27.03,88,73,0.84,MM,1717467452
510,colipapa,9.4726,122.5616,29.82,70,100,2.8,PH,1717467452
511,markaz-e hukumat-e darweshan,31.1323,64.1934,30.24,11,0,3.89,AF,1717467452
512,shitanjing,39.2342,106.3439,17.19,61,100,0.38,CN,1717467452
513,juneau,58.3019,-134.4197,16.0,100,100,3.09,US,1717467249
514,ixtapa,20.7,-105.2,26.57,74,0,2.57,MX,1717467453
515,eldorado,-23.7869,-54.2836,20.16,71,100,2.1,BR,1717467419
516,mejit,10.2753,170.8646,27.94,80,100,8.9,MH,1717467453
517,tokmak,47.2514,35.7058,19.11,70,100,0.94,UA,1717467282
518,ulanhot,46.0833,122.0833,21.42,53,20,3.28,CN,1717467453
519,shizuishan,39.2333,106.7694,18.89,60,100,6.14,CN,1717467453
520,egilsstadir,65.2653,-14.3948,0.95,93,100,11.32,IS,1717467453
521,warrnambool,-38.3833,142.4833,11.92,65,100,2.26,AU,1717467453
522,carnarvon,-24.8667,113.6333,20.07,54,0,5.91,AU,1717467454
523,menongue,-14.6585,17.691,8.51,30,7,1.14,AO,1717467454
524,cerro de pasco,-10.6833,-76.2667,-1.21,95,33,1.16,PE,1717467454
525,embi,48.8264,58.1442,20.42,47,13,4.09,KZ,1717467454
526,alofi,-19.0595,-169.9187,25.94,65,100,6.69,NU,1717467311
527,tuensang,26.2833,94.8333,23.11,78,86,1.22,IN,1717467454
528,sevierville,35.8681,-83.5618,22.87,85,0,0.0,US,1717467259
529,segezha,63.7415,34.3222,12.6,95,66,1.97,RU,1717467454
530,sao gabriel da cachoeira,-0.1303,-67.0892,23.35,99,100,0.63,BR,1717467454
531,san luis de la loma,17.2706,-100.8939,27.55,66,40,3.91,MX,1717467454
532,bogande,12.9714,-0.1436,28.25,58,100,5.37,BF,1717467455
533,shangrao,28.4532,117.9686,18.94,81,100,1.74,CN,1717467410
534,skikda,36.8762,6.9092,17.2,79,5,1.96,DZ,1717467455
535,la'ie,21.6477,-157.9253,27.98,79,0,3.58,US,1717467455
536,praia da vitoria,38.7333,-27.0667,18.2,94,20,2.03,PT,1717467455
537,norfolk,42.1668,-71.2495,18.22,76,0,0.0,US,1717467322
538,yima,34.7381,111.8839,24.23,38,100,4.42,CN,1717467455
539,argamasilla de calatrava,38.7384,-4.015,18.57,77,72,1.37,ES,1717467455
540,severo-yeniseyskiy,60.3725,93.0408,4.21,61,99,2.68,RU,1717467456
541,ellsworth,44.5434,-68.4195,14.2,92,0,2.06,US,1717467199
542,mirny,62.5353,113.9611,15.69,59,100,0.45,RU,1717467456
543,siniscola,40.5719,9.6922,15.75,82,0,1.69,IT,1717467456
544,dadukou,26.5479,101.7054,27.21,60,92,2.07,CN,1717467456
545,kashgar,39.4547,75.9797,22.56,20,75,5.0,CN,1717467456
546,senanga,-16.1167,23.2667,9.41,29,0,2.4,ZM,1717467456
547,assab,13.0092,42.7394,31.31,71,12,1.89,ER,1717467456
548,altagracia de orituco,9.8601,-66.3814,23.44,95,99,1.21,VE,1717467456
549,horodnya,51.8909,31.5974,13.99,93,94,2.67,UA,1717467369
550,lata,40.1629,-8.3327,15.6,76,0,0.9,PT,1717467456
551,sabang,5.8933,95.3214,29.07,69,100,1.41,ID,1717467428
552,ambon,-3.6954,128.1814,29.08,84,40,2.06,ID,1717467457
553,yelizovo,53.1873,158.3805,17.08,42,0,6.0,RU,1717467457
554,labrador city,52.9463,-66.9114,17.88,67,20,1.03,CA,1717467457
555,thinadhoo,0.5333,72.9333,28.36,76,5,3.25,MV,1717467457
556,garden city,42.3256,-83.331,22.25,77,40,3.6,US,1717467297
557,sogndal,61.2283,7.1003,8.21,87,100,2.57,NO,1717467342
558,vung tau,10.346,107.0843,29.86,65,100,3.96,VN,1717467457
559,montecito,34.4367,-119.6321,23.18,77,0,2.57,US,1717467457
560,flin flon,54.7682,-101.865,15.23,52,100,4.84,CA,1717467309
561,ath thawrah,35.8469,38.5443,27.41,26,0,3.17,SY,1717467430
562,pontes e lacerda,-15.2261,-59.3353,22.74,61,100,1.47,BR,1717467458
563,yerofey pavlovich,53.9667,121.9667,11.9,70,100,0.96,RU,1717467458
564,solnechnyy,50.7214,136.6319,16.13,39,16,2.73,RU,1717467458
565,antigonish,45.6169,-61.9986,11.82,97,99,1.81,CA,1717467458
566,hirara,24.8,125.2833,27.92,74,40,6.69,JP,1717467458
567,bubaque,11.2833,-15.8333,26.44,79,100,6.8,GW,1717467458
568,marovoay,-16.1,46.6333,19.57,74,0,2.24,MG,1717467458
569,lincolnton,35.4737,-81.2545,23.14,93,0,0.0,US,1717467458
570,mahibadhoo,3.7833,72.9667,28.49,79,99,3.67,MV,1717467458
571,port hedland,-20.3167,118.5667,23.03,40,0,10.8,AU,1717467459
572,caleta de carquin,-11.0925,-77.6267,17.48,85,3,4.66,PE,1717467459
573,la toma,-33.0526,-65.6238,8.29,48,100,7.3,AR,1717467459
574,gao,16.6362,1.637,31.54,31,8,2.92,ML,1717467459
575,amga,60.8953,131.9608,15.73,35,14,4.92,RU,1717467459
576,shanwei,22.782,115.3475,23.96,73,100,7.15,CN,1717467459
577,carlos chagas,-17.7031,-40.7664,19.45,92,32,1.18,BR,1717467339
578,moab,38.5733,-109.5498,28.67,19,100,0.89,US,1717467460
579,arkhangel'sk,64.5401,40.5433,16.18,100,40,2.0,RU,1717467460
580,necochea,-38.5473,-58.7368,5.63,76,100,5.4,AR,1717467330
581,angaur state,6.906,134.13,29.18,71,100,2.1,PW,1717467460
582,gibara,21.1097,-76.1317,22.62,82,95,1.7,CU,1717467460
583,tionk essil,12.7856,-16.5217,25.03,78,92,4.38,SN,1717467460
584,horodnytsya,50.807,27.3168,14.33,91,97,1.83,UA,1717467460
585,heroica ciudad de tlaxiaco,17.2667,-97.6833,16.39,86,15,2.9,MX,1717467460
586,trelleborg,55.3751,13.1569,11.97,77,81,5.51,SE,1717467460
587,nanao,37.05,136.9667,21.85,76,78,1.28,JP,1717467461
588,sumbawa besar,-8.5,117.4333,31.61,50,96,2.93,ID,1717467170
589,salur,18.5333,83.2167,30.77,60,100,0.77,IN,1717467461
590,brigantine,39.4101,-74.3646,22.33,86,75,1.54,US,1717467231
591,camayenne,9.535,-13.6878,27.25,77,93,2.37,GN,1717467461
592,malpica,43.3228,-8.8105,15.19,79,5,3.8,ES,1717467461
593,kyabe,9.4515,18.9449,27.63,54,99,2.99,TD,1717467461
594,fuglafjordur,62.244,-6.814,5.26,77,47,5.18,FO,1717467461
595,kalemie,-5.9475,29.1947,22.74,62,86,1.28,CD,1717467461
596,ruza,55.699,36.1952,12.6,98,42,2.82,RU,1717467462
597,lushun,38.8,121.2667,26.12,62,0,2.68,CN,1717467462
598,pauini,-7.7136,-66.9764,23.67,94,100,0.88,BR,1717467462
599,altai,46.3722,96.2583,11.59,39,100,6.43,MN,1717467462
600,neftcala,39.3742,49.2472,22.76,64,98,2.7,AZ,1717467462
601,vila velha,-20.3297,-40.2925,20.97,94,40,0.0,BR,1717467213
602,iringa,-7.7667,35.7,12.92,92,4,2.32,TZ,1717467462
603,gandajika,-6.75,23.95,21.37,81,70,1.45,CD,1717467369
604,sinaloa de leyva,25.8333,-108.2333,31.19,29,0,4.31,MX,1717467462
605,mastic beach,40.7668,-72.8521,22.11,89,0,0.0,US,1717467462
606,kwekwe,-18.9281,29.8149,12.24,41,0,1.7,ZW,1717467463
607,vasarosnameny,48.1333,22.3167,14.14,98,51,2.38,HU,1717467463
608,kismayo,-0.3582,42.5454,26.21,85,99,5.56,SO,1717467463
609,fisterra,42.9049,-9.2629,14.3,84,0,1.63,ES,1717467463
610,cleveland,41.4995,-81.6954,22.03,80,40,2.57,US,1717467169
611,zabaykal'sk,49.6333,117.3167,26.36,24,58,5.21,RU,1717467463
